% program   : RTKPOST ver.2.4.2
% inp file  : \\File.ceegs.ohio-state.edu\SPIN\MultiSensor_NOV_11_2015\GPS_RINEX\Leica.15O
% inp file  : \\File.ceegs.ohio-state.edu\SPIN\MultiSensor_NOV_11_2015\GPS_RINEX\Novatel_base.15O
% inp file  : \\File.ceegs.ohio-state.edu\SPIN\MultiSensor_NOV_11_2015\GPS_RINEX\Leica.15N
% inp file  : \\File.ceegs.ohio-state.edu\SPIN\MultiSensor_NOV_11_2015\GPS_RINEX\colb315\igs18703.sp3
% obs start : 2015/11/11 15:36:59.0 GPST (week1870 315419.0s)
% obs end   : 2015/11/11 22:04:39.0 GPST (week1870 338679.0s)
% pos mode  : kinematic
% freqs     : L1+L2
% solution  : combined
% elev mask : 15.0 deg
% dynamics  : on
% tidecorr  : on
% ionos opt : broadcast
% tropo opt : saastamoinen
% ephemeris : precise
% amb res   : fix and hold
% val thres : 3.0
% antenna1  : LEIAS10         NONE  ( 0.0000  0.0000  0.0000)
% antenna2  : NOV600          NONE  ( 0.0000  0.0000  0.0000)
% ref pos   :   592592.8790  -4856611.6320   4078408.1750
%
% (x/y/z-ecef=WGS84,Q=1:fix,2:float,3:sbas,4:dgps,5:single,6:ppp,ns=# of satellites)
%  GPST              x-ecef(m)      y-ecef(m)      z-ecef(m)   Q  ns   sdx(m)   sdy(m)   sdz(m)  sdxy(m)  sdyz(m)  sdzx(m) age(s)  ratio
1870 315421.600    595013.4873  -4856399.4368   4078395.2865   5   4   3.5249   6.6332   5.0773   4.3969  -5.6267  -3.7690 -1117.20    0.0
1870 315421.800    595013.4817  -4856399.2399   4078395.1854   5   4   3.5253   6.6343   5.0784   4.3977  -5.6278  -3.7697 -1117.00    0.0
1870 315422.000    595013.4906  -4856399.3042   4078395.2292   5   4   3.5257   6.6355   5.0794   4.3984  -5.6290  -3.7705 -1116.80    0.0
1870 315422.200    595013.4429  -4856399.8920   4078395.5753   5   4   3.5261   6.6367   5.0805   4.3992  -5.6301  -3.7712 -1116.60    0.0
1870 315422.400    595013.4086  -4856400.3055   4078395.8181   5   4   3.5265   6.6379   5.0815   4.3999  -5.6312  -3.7720 -1116.40    0.0
1870 315422.600    595013.3420  -4856400.7067   4078396.0807   5   4   3.5270   6.6391   5.0826   4.4007  -5.6324  -3.7727 -1116.20    0.0
1870 315422.800    595013.3815  -4856400.3061   4078395.8464   5   4   3.5274   6.6402   5.0836   4.4015  -5.6335  -3.7735 -1116.00    0.0
1870 315423.000    595013.3350  -4856400.7199   4078396.0836   5   4   3.5278   6.6414   5.0847   4.4022  -5.6347  -3.7743 -1115.80    0.0
1870 315423.200    595013.3801  -4856400.3356   4078395.8787   5   4   3.5282   6.6426   5.0858   4.4030  -5.6358  -3.7750 -1115.60    0.0
1870 315423.400    595013.3489  -4856400.5168   4078395.9767   5   4   3.5287   6.6438   5.0868   4.4038  -5.6369  -3.7758 -1115.40    0.0
1870 315423.600    595013.3751  -4856400.6849   4078396.0841   5   4   3.5291   6.6450   5.0879   4.4045  -5.6381  -3.7765 -1115.20    0.0
1870 315423.800    595013.3308  -4856401.3605   4078396.4608   5   4   3.5295   6.6461   5.0889   4.4053  -5.6392  -3.7773 -1115.00    0.0
1870 315424.000    595013.3070  -4856401.5002   4078396.5527   5   4   3.5299   6.6473   5.0900   4.4061  -5.6404  -3.7781 -1114.80    0.0
1870 315424.200    595013.3084  -4856401.3488   4078396.4734   5   4   3.5304   6.6485   5.0911   4.4068  -5.6415  -3.7788 -1114.60    0.0
1870 315424.400    595013.3536  -4856401.1679   4078396.3700   5   4   3.5308   6.6497   5.0921   4.4076  -5.6427  -3.7796 -1114.40    0.0
1870 315424.600    595013.3829  -4856401.1035   4078396.3324   5   4   3.5312   6.6509   5.0932   4.4084  -5.6438  -3.7803 -1114.20    0.0
1870 315424.800    595013.3554  -4856401.5631   4078396.5976   5   4   3.5316   6.6521   5.0942   4.4091  -5.6449  -3.7811 -1114.00    0.0
1870 315425.000    595013.3055  -4856401.7612   4078396.7137   5   4   3.5321   6.6532   5.0953   4.4099  -5.6461  -3.7818 -1113.80    0.0
1870 315425.200    595013.2934  -4856401.9882   4078396.8396   5   4   3.5325   6.6544   5.0964   4.4107  -5.6472  -3.7826 -1113.60    0.0
1870 315425.400    595013.2909  -4856402.2315   4078396.9971   5   4   3.5329   6.6556   5.0974   4.4114  -5.6484  -3.7834 -1113.40    0.0
1870 315425.600    595013.2706  -4856402.4586   4078397.1192   5   4   3.5333   6.6568   5.0985   4.4122  -5.6495  -3.7841 -1113.20    0.0
1870 315425.800    595013.2240  -4856402.6152   4078397.2272   5   4   3.5338   6.6580   5.0996   4.4130  -5.6507  -3.7849 -1113.00    0.0
1870 315426.000    595013.2670  -4856402.5797   4078397.1877   5   4   3.5342   6.6592   5.1006   4.4137  -5.6518  -3.7857 -1112.80    0.0
1870 315426.200    595013.2659  -4856402.6486   4078397.2358   5   4   3.5346   6.6604   5.1017   4.4145  -5.6530  -3.7864 -1112.60    0.0
1870 315426.400    595013.2968  -4856402.8045   4078397.3275   5   4   3.5350   6.6616   5.1028   4.4153  -5.6541  -3.7872 -1112.40    0.0
1870 315426.600    595013.2758  -4856402.9899   4078397.4396   5   4   3.5355   6.6627   5.1038   4.4160  -5.6553  -3.7879 -1112.20    0.0
1870 315426.800    595013.2031  -4856403.2051   4078397.5718   5   4   3.5359   6.6639   5.1049   4.4168  -5.6564  -3.7887 -1112.00    0.0
1870 315427.000    595013.2395  -4856403.1862   4078397.5561   5   4   3.5363   6.6651   5.1060   4.4176  -5.6575  -3.7895 -1111.80    0.0
1870 315427.200    595013.2601  -4856403.2840   4078397.6062   5   4   3.5368   6.6663   5.1070   4.4184  -5.6587  -3.7902 -1111.60    0.0
1870 315427.400    595013.2248  -4856403.6028   4078397.8118   5   4   3.5372   6.6675   5.1081   4.4191  -5.6598  -3.7910 -1111.40    0.0
1870 315427.600    595013.1972  -4856403.8050   4078397.9476   5   4   3.5376   6.6687   5.1092   4.4199  -5.6610  -3.7918 -1111.20    0.0
1870 315427.800    595013.2175  -4856403.7863   4078397.9241   5   4   3.5380   6.6699   5.1102   4.4207  -5.6621  -3.7925 -1111.00    0.0
1870 315428.000    595013.1878  -4856403.9303   4078398.0221   5   4   3.5385   6.6711   5.1113   4.4214  -5.6633  -3.7933 -1110.80    0.0
1870 315428.200    595013.2182  -4856404.1737   4078398.1422   5   4   3.5389   6.6723   5.1124   4.4222  -5.6644  -3.7940 -1110.60    0.0
1870 315428.400    595013.1703  -4856404.5676   4078398.4057   5   4   3.5393   6.6735   5.1134   4.4230  -5.6656  -3.7948 -1110.40    0.0
1870 315432.000    595021.7139  -4856396.1899   4078392.0562   5   4   3.5471   6.6950   5.1328   4.4370  -5.6864  -3.8087 -1106.80    0.0
1870 315441.400    595036.5583  -4856362.1096   4078369.9993   5   5   1.2483   3.0916   2.9778  -0.2149  -2.7373  -0.7769 -1097.40    0.0
1870 315441.600    595036.2365  -4856362.6400   4078370.5247   5   5   1.2484   3.0917   2.9780  -0.2149  -2.7375  -0.7769 -1097.20    0.0
1870 315441.800    595026.4947  -4856339.1660   4078360.1049   5   4   2.5125   6.0956   3.7821  -3.3912  -4.4431   2.1165 -1097.00    0.0
1870 315442.000    595026.5552  -4856339.3583   4078360.1514   5   4   2.5126   6.0954   3.7821  -3.3912  -4.4430   2.1163 -1096.80    0.0
1870 315442.200    595026.5804  -4856339.5702   4078360.3132   5   4   2.5126   6.0952   3.7822  -3.3911  -4.4429   2.1162 -1096.60    0.0
1870 315442.400    595026.5410  -4856339.3571   4078360.2108   5   4   2.5127   6.0951   3.7822  -3.3911  -4.4428   2.1161 -1096.40    0.0
1870 315442.600    595026.6421  -4856339.6190   4078360.3109   5   4   2.5128   6.0949   3.7822  -3.3910  -4.4427   2.1160 -1096.20    0.0
1870 315442.800    595026.6376  -4856339.5704   4078360.3196   5   4   2.5128   6.0947   3.7822  -3.3909  -4.4425   2.1158 -1096.00    0.0
1870 315443.000    595026.6760  -4856339.6453   4078360.4172   5   4   2.5129   6.0945   3.7822  -3.3909  -4.4424   2.1157 -1095.80    0.0
1870 315443.200    595026.7026  -4856340.0826   4078360.6958   5   4   2.5129   6.0943   3.7822  -3.3908  -4.4423   2.1156 -1095.60    0.0
1870 315443.400    595026.6882  -4856339.8686   4078360.5780   5   4   2.5130   6.0942   3.7823  -3.3907  -4.4422   2.1154 -1095.40    0.0
1870 315443.600    595026.7392  -4856339.8450   4078360.4826   5   4   2.5130   6.0940   3.7823  -3.3907  -4.4420   2.1153 -1095.20    0.0
1870 315443.800    595026.6564  -4856339.7826   4078360.4545   5   4   2.5131   6.0938   3.7823  -3.3906  -4.4419   2.1152 -1095.00    0.0
1870 315444.000    595026.6848  -4856340.1906   4078360.6551   5   4   2.5131   6.0936   3.7823  -3.3906  -4.4418   2.1150 -1094.80    0.0
1870 315444.200    595026.7176  -4856339.7992   4078360.4205   5   4   2.5132   6.0935   3.7823  -3.3905  -4.4417   2.1149 -1094.60    0.0
1870 315444.400    595026.7227  -4856339.7820   4078360.4266   5   4   2.5133   6.0933   3.7823  -3.3904  -4.4416   2.1148 -1094.40    0.0
1870 315444.600    595026.7488  -4856339.8102   4078360.4284   5   4   2.5133   6.0931   3.7824  -3.3904  -4.4414   2.1146 -1094.20    0.0
1870 315444.800    595026.8132  -4856340.0072   4078360.5456   5   4   2.5134   6.0929   3.7824  -3.3903  -4.4413   2.1145 -1094.00    0.0
1870 315445.000    595026.7936  -4856340.1127   4078360.6175   5   4   2.5134   6.0928   3.7824  -3.3902  -4.4412   2.1144 -1093.80    0.0
1870 315445.200    595026.8034  -4856339.8971   4078360.4997   5   4   2.5135   6.0926   3.7824  -3.3902  -4.4411   2.1142 -1093.60    0.0
1870 315445.400    595026.7178  -4856339.6978   4078360.3228   5   4   2.5135   6.0924   3.7824  -3.3901  -4.4409   2.1141 -1093.40    0.0
1870 315445.600    595026.7717  -4856339.5561   4078360.2631   5   4   2.5136   6.0922   3.7824  -3.3900  -4.4408   2.1140 -1093.20    0.0
1870 315445.800    595026.7292  -4856339.1548   4078360.0118   5   4   2.5136   6.0921   3.7825  -3.3900  -4.4407   2.1138 -1093.00    0.0
1870 315446.000    595026.7722  -4856338.8977   4078359.8566   5   4   2.5137   6.0919   3.7825  -3.3899  -4.4406   2.1137 -1092.80    0.0
1870 315446.200    595026.8534  -4856338.8092   4078359.8169   5   4   2.5138   6.0917   3.7825  -3.3899  -4.4405   2.1136 -1092.60    0.0
1870 315446.400    595026.8468  -4856338.5226   4078359.6456   5   4   2.5138   6.0915   3.7825  -3.3898  -4.4403   2.1135 -1092.40    0.0
1870 315446.600    595026.7472  -4856338.6632   4078359.7273   5   4   2.5139   6.0914   3.7825  -3.3897  -4.4402   2.1133 -1092.20    0.0
1870 315446.800    595026.7074  -4856338.6222   4078359.7725   5   4   2.5139   6.0912   3.7825  -3.3897  -4.4401   2.1132 -1092.00    0.0
1870 315447.000    595026.7437  -4856338.8157   4078359.9667   5   4   2.5140   6.0910   3.7826  -3.3896  -4.4400   2.1131 -1091.80    0.0
1870 315447.200    595026.7752  -4856338.8702   4078359.9768   5   4   2.5140   6.0908   3.7826  -3.3895  -4.4399   2.1129 -1091.60    0.0
1870 315447.400    595026.7495  -4856338.8659   4078360.0086   5   4   2.5141   6.0907   3.7826  -3.3895  -4.4397   2.1128 -1091.40    0.0
1870 315447.600    595026.7486  -4856339.0139   4078360.1223   5   4   2.5141   6.0905   3.7826  -3.3894  -4.4396   2.1127 -1091.20    0.0
1870 315447.800    595026.8121  -4856339.0763   4078360.1260   5   4   2.5142   6.0903   3.7826  -3.3894  -4.4395   2.1125 -1091.00    0.0
1870 315448.000    595026.7794  -4856338.7380   4078359.9854   5   4   2.5143   6.0901   3.7826  -3.3893  -4.4394   2.1124 -1090.80    0.0
1870 315448.200    595026.7009  -4856338.8023   4078360.0784   5   4   2.5143   6.0900   3.7827  -3.3892  -4.4392   2.1123 -1090.60    0.0
1870 315448.400    595036.5195  -4856362.4777   4078370.6328   5   5   1.2499   3.0965   2.9852  -0.2148  -2.7429  -0.7793 -1090.40    0.0
1870 315448.600    595035.7485  -4856360.3727   4078369.6940   5   5   1.2499   3.0967   2.9854  -0.2148  -2.7431  -0.7794 -1090.20    0.0
1870 315448.800    595034.7444  -4856357.9470   4078368.6581   5   5   1.2500   3.0968   2.9856  -0.2148  -2.7432  -0.7795 -1090.00    0.0
1870 315449.000    595034.9877  -4856358.6368   4078368.9501   5   5   1.2500   3.0970   2.9858  -0.2148  -2.7434  -0.7796 -1089.80    0.0
1870 315449.200    595035.2355  -4856359.0189   4078369.1645   5   5   1.2501   3.0971   2.9861  -0.2148  -2.7436  -0.7796 -1089.60    0.0
1870 315449.400    595036.0072  -4856360.9463   4078370.0301   5   5   1.2501   3.0972   2.9863  -0.2148  -2.7437  -0.7797 -1089.40    0.0
1870 315449.600    595035.8885  -4856360.5590   4078369.8262   5   5   1.2502   3.0974   2.9865  -0.2148  -2.7439  -0.7798 -1089.20    0.0
1870 315449.800    595035.5673  -4856359.8587   4078369.5003   5   5   1.2502   3.0975   2.9867  -0.2148  -2.7440  -0.7798 -1089.00    0.0
1870 315450.000    595035.2469  -4856359.2712   4078369.2829   5   5   1.2502   3.0977   2.9869  -0.2148  -2.7442  -0.7799 -1088.80    0.0
1870 315450.200    595035.3852  -4856359.7400   4078369.4763   5   5   1.2502   3.0977   2.9870  -0.2148  -2.7442  -0.7800 -1088.60    0.0
1870 315450.400    595035.7225  -4856360.5876   4078369.9070   5   5   1.2502   3.0976   2.9869  -0.2149  -2.7441  -0.7800 -1088.40    0.0
1870 315450.600    595035.5996  -4856360.3082   4078369.7770   5   5   1.2502   3.0975   2.9869  -0.2149  -2.7441  -0.7800 -1088.20    0.0
1870 315450.800    595035.6526  -4856360.4718   4078369.8776   5   5   1.2502   3.0974   2.9868  -0.2149  -2.7440  -0.7800 -1088.00    0.0
1870 315451.000    595035.6209  -4856360.4292   4078369.8693   5   5   1.2501   3.0973   2.9868  -0.2150  -2.7440  -0.7800 -1087.80    0.0
1870 315451.200    595035.5473  -4856360.2247   4078369.8215   5   5   1.2501   3.0973   2.9867  -0.2150  -2.7439  -0.7800 -1087.60    0.0
1870 315451.400    595035.5166  -4856360.0050   4078369.6663   5   5   1.2501   3.0972   2.9867  -0.2150  -2.7438  -0.7800 -1087.40    0.0
1870 315451.600    595035.3707  -4856359.6758   4078369.5275   5   5   1.2500   3.0971   2.9867  -0.2151  -2.7438  -0.7801 -1087.20    0.0
1870 315451.800    595035.3422  -4856359.4631   4078369.4184   5   5   1.2500   3.0970   2.9866  -0.2151  -2.7437  -0.7801 -1087.00    0.0
1870 315452.000    595035.1180  -4856359.2455   4078369.3782   5   5   1.2500   3.0969   2.9866  -0.2151  -2.7436  -0.7801 -1086.80    0.0
1870 315452.200    595035.2762  -4856359.3676   4078369.3773   5   5   1.2500   3.0968   2.9865  -0.2152  -2.7436  -0.7801 -1086.60    0.0
1870 315452.400    595035.3603  -4856359.7700   4078369.6196   5   5   1.2499   3.0968   2.9865  -0.2152  -2.7435  -0.7801 -1086.40    0.0
1870 315452.600    595035.4745  -4856360.0856   4078369.7534   5   5   1.2499   3.0967   2.9864  -0.2152  -2.7435  -0.7801 -1086.20    0.0
1870 315452.800    595035.3355  -4856359.8203   4078369.6163   5   5   1.2499   3.0966   2.9864  -0.2153  -2.7434  -0.7801 -1086.00    0.0
1870 315453.000    595035.2659  -4856359.6312   4078369.5412   5   5   1.2499   3.0965   2.9864  -0.2153  -2.7433  -0.7802 -1085.80    0.0
1870 315453.200    595035.3892  -4856360.0536   4078369.7579   5   5   1.2498   3.0964   2.9863  -0.2153  -2.7433  -0.7802 -1085.60    0.0
1870 315453.400    595035.4723  -4856360.1170   4078369.7545   5   5   1.2498   3.0964   2.9863  -0.2154  -2.7432  -0.7802 -1085.40    0.0
1870 315453.600    595035.4764  -4856360.1015   4078369.7747   5   5   1.2498   3.0963   2.9862  -0.2154  -2.7431  -0.7802 -1085.20    0.0
1870 315453.800    595035.4450  -4856360.2461   4078369.8628   5   5   1.2497   3.0962   2.9862  -0.2154  -2.7431  -0.7802 -1085.00    0.0
1870 315454.000    595035.4151  -4856360.3492   4078369.9386   5   5   1.2497   3.0961   2.9861  -0.2154  -2.7430  -0.7802 -1084.80    0.0
1870 315454.200    595035.4530  -4856360.3796   4078369.9867   5   5   1.2497   3.0960   2.9861  -0.2155  -2.7430  -0.7802 -1084.60    0.0
1870 315454.400    595035.6221  -4856360.5484   4078370.0454   5   5   1.2497   3.0960   2.9861  -0.2155  -2.7429  -0.7803 -1084.40    0.0
1870 315454.600    595035.6510  -4856360.5000   4078370.0250   5   5   1.2496   3.0959   2.9860  -0.2155  -2.7428  -0.7803 -1084.20    0.0
1870 315454.800    595035.7130  -4856360.8398   4078370.1951   5   5   1.2496   3.0958   2.9860  -0.2156  -2.7428  -0.7803 -1084.00    0.0
1870 315455.000    595035.5896  -4856360.7165   4078370.1689   5   5   1.2496   3.0957   2.9859  -0.2156  -2.7427  -0.7803 -1083.80    0.0
1870 315455.200    595035.7804  -4856360.8498   4078370.2103   5   5   1.2496   3.0956   2.9859  -0.2156  -2.7427  -0.7803 -1083.60    0.0
1870 315455.400    595035.9067  -4856361.0604   4078370.3160   5   5   1.2495   3.0956   2.9858  -0.2157  -2.7426  -0.7803 -1083.40    0.0
1870 315455.600    595036.0209  -4856361.4134   4078370.4948   5   5   1.2495   3.0955   2.9858  -0.2157  -2.7425  -0.7803 -1083.20    0.0
1870 315455.800    595036.0395  -4856361.3965   4078370.4836   5   5   1.2495   3.0954   2.9858  -0.2157  -2.7425  -0.7804 -1083.00    0.0
1870 315456.000    595036.1243  -4856361.3641   4078370.4214   5   5   1.2494   3.0953   2.9857  -0.2158  -2.7424  -0.7804 -1082.80    0.0
1870 315456.200    595036.1509  -4856361.3182   4078370.3857   5   5   1.2494   3.0952   2.9857  -0.2158  -2.7423  -0.7804 -1082.60    0.0
1870 315456.400    595036.2506  -4856361.6053   4078370.5403   5   5   1.2494   3.0952   2.9856  -0.2158  -2.7423  -0.7804 -1082.40    0.0
1870 315456.600    595036.1327  -4856361.5196   4078370.5513   5   5   1.2494   3.0951   2.9856  -0.2159  -2.7422  -0.7804 -1082.20    0.0
1870 315456.800    595036.1338  -4856361.6349   4078370.6312   5   5   1.2493   3.0950   2.9855  -0.2159  -2.7422  -0.7804 -1082.00    0.0
1870 315457.000    595036.2125  -4856361.7620   4078370.6724   5   5   1.2493   3.0949   2.9855  -0.2159  -2.7421  -0.7804 -1081.80    0.0
1870 315457.200    595036.2086  -4856361.6954   4078370.6253   5   5   1.2493   3.0949   2.9855  -0.2160  -2.7420  -0.7805 -1081.60    0.0
1870 315457.400    595036.2646  -4856361.8263   4078370.7175   5   5   1.2493   3.0948   2.9854  -0.2160  -2.7420  -0.7805 -1081.40    0.0
1870 315457.600    595036.2286  -4856361.8035   4078370.6976   5   5   1.2492   3.0947   2.9854  -0.2160  -2.7419  -0.7805 -1081.20    0.0
1870 315457.800    595036.2813  -4856361.8373   4078370.7024   5   5   1.2492   3.0946   2.9853  -0.2161  -2.7419  -0.7805 -1081.00    0.0
1870 315458.000    595036.2434  -4856361.9247   4078370.7872   5   5   1.2492   3.0945   2.9853  -0.2161  -2.7418  -0.7805 -1080.80    0.0
1870 315458.200    595036.2660  -4856361.7502   4078370.6708   5   5   1.2491   3.0945   2.9852  -0.2161  -2.7417  -0.7805 -1080.60    0.0
1870 315458.400    595036.2802  -4856361.8330   4078370.7396   5   5   1.2491   3.0944   2.9852  -0.2162  -2.7417  -0.7806 -1080.40    0.0
1870 315458.600    595036.3144  -4856362.0871   4078370.8465   5   5   1.2491   3.0943   2.9852  -0.2162  -2.7416  -0.7806 -1080.20    0.0
1870 315458.800    595036.2657  -4856362.1243   4078370.8658   5   5   1.2491   3.0942   2.9851  -0.2162  -2.7415  -0.7806 -1080.00    0.0
1870 315459.000    595036.3062  -4856362.1223   4078370.8917   5   5   1.2490   3.0941   2.9851  -0.2162  -2.7415  -0.7806 -1079.80    0.0
1870 315459.200    595036.2432  -4856361.9803   4078370.8442   5   5   1.2490   3.0941   2.9850  -0.2163  -2.7414  -0.7806 -1079.60    0.0
1870 315459.400    595036.3188  -4856361.8834   4078370.7595   5   5   1.2490   3.0940   2.9850  -0.2163  -2.7414  -0.7806 -1079.40    0.0
1870 315459.600    595036.3208  -4856361.8897   4078370.7986   5   5   1.2490   3.0939   2.9850  -0.2163  -2.7413  -0.7806 -1079.20    0.0
1870 315459.800    595036.3162  -4856361.9969   4078370.8928   5   5   1.2489   3.0938   2.9849  -0.2164  -2.7412  -0.7807 -1079.00    0.0
1870 315460.000    595036.3564  -4856362.1594   4078371.0022   5   5   1.2489   3.0937   2.9849  -0.2164  -2.7412  -0.7807 -1078.80    0.0
1870 315460.200    595036.4684  -4856362.2878   4078371.0416   5   5   1.2489   3.0937   2.9848  -0.2164  -2.7411  -0.7807 -1078.60    0.0
1870 315460.400    595036.4731  -4856362.2604   4078371.0489   5   5   1.2489   3.0936   2.9848  -0.2165  -2.7411  -0.7807 -1078.40    0.0
1870 315460.600    595036.4561  -4856362.2327   4078371.0380   5   5   1.2488   3.0935   2.9847  -0.2165  -2.7410  -0.7807 -1078.20    0.0
1870 315460.800    595036.4344  -4856362.2542   4078371.0529   5   5   1.2488   3.0934   2.9847  -0.2165  -2.7409  -0.7807 -1078.00    0.0
1870 315461.000    595036.3908  -4856362.2927   4078371.1011   5   5   1.2488   3.0933   2.9847  -0.2166  -2.7409  -0.7807 -1077.80    0.0
1870 315461.200    595036.3255  -4856362.3716   4078371.1820   5   5   1.2487   3.0933   2.9846  -0.2166  -2.7408  -0.7808 -1077.60    0.0
1870 315461.400    595036.3380  -4856362.2616   4078371.1048   5   5   1.2487   3.0932   2.9846  -0.2166  -2.7408  -0.7808 -1077.40    0.0
1870 315461.600    595036.2729  -4856362.3174   4078371.1593   5   5   1.2487   3.0931   2.9845  -0.2166  -2.7407  -0.7808 -1077.20    0.0
1870 315461.800    595036.3354  -4856362.2137   4078371.0447   5   5   1.2487   3.0930   2.9845  -0.2167  -2.7406  -0.7808 -1077.00    0.0
1870 315462.000    595036.3110  -4856362.2377   4078371.0713   5   5   1.2486   3.0929   2.9845  -0.2167  -2.7406  -0.7808 -1076.80    0.0
1870 315462.200    595036.3166  -4856362.0559   4078370.9716   5   5   1.2486   3.0929   2.9844  -0.2167  -2.7405  -0.7808 -1076.60    0.0
1870 315462.400    595036.4034  -4856361.9596   4078370.8939   5   5   1.2486   3.0928   2.9844  -0.2168  -2.7404  -0.7809 -1076.40    0.0
1870 315462.600    595036.4071  -4856362.0068   4078370.9164   5   5   1.2486   3.0927   2.9843  -0.2168  -2.7404  -0.7809 -1076.20    0.0
1870 315462.800    595036.4483  -4856361.9788   4078370.8833   5   5   1.2485   3.0926   2.9843  -0.2168  -2.7403  -0.7809 -1076.00    0.0
1870 315463.000    595036.5179  -4856361.8200   4078370.7527   5   5   1.2485   3.0926   2.9842  -0.2169  -2.7403  -0.7809 -1075.80    0.0
1870 315463.200    595036.4925  -4856361.9954   4078370.8809   5   5   1.2485   3.0925   2.9842  -0.2169  -2.7402  -0.7809 -1075.60    0.0
1870 315463.400    595036.4647  -4856361.9270   4078370.8353   5   5   1.2485   3.0924   2.9842  -0.2169  -2.7401  -0.7809 -1075.40    0.0
1870 315463.600    595036.4951  -4856361.9303   4078370.8384   5   5   1.2484   3.0923   2.9841  -0.2169  -2.7401  -0.7810 -1075.20    0.0
1870 315463.800    595036.5381  -4856362.0152   4078370.8596   5   5   1.2484   3.0922   2.9841  -0.2170  -2.7400  -0.7810 -1075.00    0.0
1870 315464.000    595036.5726  -4856362.0927   4078370.8969   5   5   1.2484   3.0922   2.9840  -0.2170  -2.7400  -0.7810 -1074.80    0.0
1870 315464.200    595036.6082  -4856362.2652   4078370.9910   5   5   1.2483   3.0921   2.9840  -0.2170  -2.7399  -0.7810 -1074.60    0.0
1870 315464.400    595036.6223  -4856362.2776   4078370.9987   5   5   1.2483   3.0920   2.9840  -0.2171  -2.7398  -0.7810 -1074.40    0.0
1870 315493.600    595038.9093  -4856360.1570   4078368.2880   5   5   1.2447   3.0809   2.9783  -0.2209  -2.7313  -0.7835 -1045.20    0.0
1870 315493.800    595038.9359  -4856360.1046   4078368.2521   5   5   1.2446   3.0808   2.9783  -0.2209  -2.7312  -0.7836 -1045.00    0.0
1870 315494.000    595038.9409  -4856360.0527   4078368.1990   5   5   1.2446   3.0808   2.9783  -0.2209  -2.7312  -0.7836 -1044.80    0.0
1870 315494.200    595038.9698  -4856359.9902   4078368.1581   5   5   1.2446   3.0807   2.9782  -0.2209  -2.7311  -0.7836 -1044.60    0.0
1870 315494.400    595039.0016  -4856359.9063   4078368.0936   5   5   1.2446   3.0806   2.9782  -0.2210  -2.7311  -0.7836 -1044.40    0.0
1870 315494.600    595039.0005  -4856359.8365   4078368.0512   5   5   1.2446   3.0805   2.9781  -0.2210  -2.7310  -0.7836 -1044.20    0.0
1870 315494.800    595039.0366  -4856359.6909   4078367.9522   5   5   1.2445   3.0805   2.9781  -0.2210  -2.7310  -0.7836 -1044.00    0.0
1870 315495.000    595039.0414  -4856359.6436   4078367.9143   5   5   1.2445   3.0804   2.9781  -0.2210  -2.7309  -0.7837 -1043.80    0.0
1870 315495.200    595039.0722  -4856359.5341   4078367.8591   5   5   1.2445   3.0803   2.9780  -0.2210  -2.7308  -0.7837 -1043.60    0.0
1870 315495.400    595039.0831  -4856359.5091   4078367.8257   5   5   1.2445   3.0802   2.9780  -0.2211  -2.7308  -0.7837 -1043.40    0.0
1870 315495.600    595039.1181  -4856359.4329   4078367.7533   5   5   1.2444   3.0802   2.9780  -0.2211  -2.7307  -0.7837 -1043.20    0.0
1870 315495.800    595039.1063  -4856359.4115   4078367.7712   5   5   1.2444   3.0801   2.9779  -0.2211  -2.7307  -0.7837 -1043.00    0.0
1870 315496.000    595039.1514  -4856359.2790   4078367.6451   5   5   1.2444   3.0800   2.9779  -0.2211  -2.7306  -0.7838 -1042.80    0.0
1870 315496.200    595039.1554  -4856359.2231   4078367.6403   5   5   1.2444   3.0800   2.9779  -0.2212  -2.7306  -0.7838 -1042.60    0.0
1870 315496.400    595039.1434  -4856359.1485   4078367.5983   5   5   1.2443   3.0799   2.9778  -0.2212  -2.7305  -0.7838 -1042.40    0.0
1870 315496.600    595039.1516  -4856359.1259   4078367.5764   5   5   1.2443   3.0798   2.9778  -0.2212  -2.7304  -0.7838 -1042.20    0.0
1870 315496.800    595039.1493  -4856359.1470   4078367.5996   5   5   1.2443   3.0797   2.9778  -0.2212  -2.7304  -0.7838 -1042.00    0.0
1870 315497.000    595039.1751  -4856359.0381   4078367.5256   5   5   1.2443   3.0797   2.9777  -0.2212  -2.7303  -0.7839 -1041.80    0.0
1870 315497.200    595039.1830  -4856359.0030   4078367.4950   5   5   1.2443   3.0796   2.9777  -0.2213  -2.7303  -0.7839 -1041.60    0.0
1870 315497.400    595039.2071  -4856358.9219   4078367.4232   5   5   1.2442   3.0795   2.9776  -0.2213  -2.7302  -0.7839 -1041.40    0.0
1870 315497.600    595023.7881  -4856387.1863   4078387.7929   5   4   3.6365   7.0036   5.4171   4.6309  -5.9933  -4.0097 -1041.20    0.0
1870 315497.800    595023.7766  -4856387.1587   4078387.7568   5   4   3.6367   7.0045   5.4179   4.6314  -5.9942  -4.0103 -1041.00    0.0
1870 315498.000    595023.8284  -4856387.0569   4078387.6934   5   4   3.6369   7.0054   5.4187   4.6320  -5.9951  -4.0108 -1040.80    0.0
1870 315498.200    595023.8764  -4856386.9548   4078387.6276   5   4   3.6372   7.0063   5.4196   4.6325  -5.9960  -4.0114 -1040.60    0.0
1870 315498.400    595023.9207  -4856386.8522   4078387.5597   5   4   3.6374   7.0072   5.4204   4.6331  -5.9968  -4.0120 -1040.40    0.0
1870 315498.600    595023.9064  -4856386.8414   4078387.5495   5   4   3.6376   7.0080   5.4212   4.6336  -5.9977  -4.0126 -1040.20    0.0
1870 315498.800    595023.9296  -4856386.8594   4078387.5490   5   4   3.6379   7.0089   5.4220   4.6342  -5.9986  -4.0132 -1040.00    0.0
1870 315499.000    595023.9491  -4856386.8770   4078387.5462   5   4   3.6381   7.0098   5.4229   4.6347  -5.9995  -4.0137 -1039.80    0.0
1870 315499.200    595023.9425  -4856386.8228   4078387.5283   5   4   3.6383   7.0107   5.4237   4.6353  -6.0004  -4.0143 -1039.60    0.0
1870 315499.400    595024.0161  -4856386.6869   4078387.4249   5   4   3.6386   7.0116   5.4245   4.6358  -6.0013  -4.0149 -1039.40    0.0
1870 315499.600    595024.0020  -4856386.6319   4078387.4025   5   4   3.6388   7.0125   5.4253   4.6364  -6.0022  -4.0155 -1039.20    0.0
1870 315499.800    595024.0614  -4856386.5558   4078387.3306   5   4   3.6390   7.0134   5.4262   4.6369  -6.0031  -4.0161 -1039.00    0.0
1870 315500.000    595024.0519  -4856386.5184   4078387.3386   5   4   3.6393   7.0142   5.4270   4.6375  -6.0040  -4.0166 -1038.80    0.0
1870 315500.200    595024.1227  -4856386.3992   4078387.2611   5   4   3.6395   7.0151   5.4278   4.6380  -6.0049  -4.0172 -1038.60    0.0
1870 315500.400    595024.1349  -4856386.3719   4078387.2416   5   4   3.6398   7.0160   5.4286   4.6386  -6.0058  -4.0178 -1038.40    0.0
1870 315500.600    595024.1569  -4856386.2228   4078387.1477   5   4   3.6400   7.0169   5.4295   4.6391  -6.0066  -4.0184 -1038.20    0.0
1870 315500.800    595024.1738  -4856386.2130   4078387.1586   5   4   3.6402   7.0178   5.4303   4.6397  -6.0075  -4.0190 -1038.00    0.0
1870 315501.000    595024.2040  -4856386.1954   4078387.1091   5   4   3.6405   7.0187   5.4311   4.6402  -6.0084  -4.0195 -1037.80    0.0
1870 315501.200    595024.2269  -4856386.0634   4078387.0434   5   4   3.6407   7.0196   5.4319   4.6408  -6.0093  -4.0201 -1037.60    0.0
1870 315501.400    595024.2617  -4856386.0633   4078387.0244   5   4   3.6409   7.0205   5.4328   4.6414  -6.0102  -4.0207 -1037.40    0.0
1870 315501.600    595024.2276  -4856386.1020   4078387.0856   5   4   3.6412   7.0214   5.4336   4.6419  -6.0111  -4.0213 -1037.20    0.0
1870 315501.800    595024.2549  -4856386.1012   4078387.0621   5   4   3.6414   7.0222   5.4344   4.6425  -6.0120  -4.0219 -1037.00    0.0
1870 315502.000    595024.2974  -4856386.0576   4078387.0353   5   4   3.6416   7.0231   5.4353   4.6430  -6.0129  -4.0225 -1036.80    0.0
1870 315502.200    595024.3430  -4856385.9529   4078386.9701   5   4   3.6419   7.0240   5.4361   4.6436  -6.0138  -4.0230 -1036.60    0.0
1870 315502.400    595024.3780  -4856385.9085   4078386.9388   5   4   3.6421   7.0249   5.4369   4.6441  -6.0147  -4.0236 -1036.40    0.0
1870 315502.600    595024.3544  -4856385.9561   4078386.9655   5   4   3.6424   7.0258   5.4378   4.6447  -6.0156  -4.0242 -1036.20    0.0
1870 315502.800    595024.3940  -4856385.9293   4078386.9647   5   4   3.6426   7.0267   5.4386   4.6452  -6.0165  -4.0248 -1036.00    0.0
1870 315503.000    595024.4178  -4856385.8838   4078386.9265   5   4   3.6428   7.0276   5.4394   4.6458  -6.0174  -4.0254 -1035.80    0.0
1870 315503.200    595024.4379  -4856385.8379   4078386.8861   5   4   3.6431   7.0285   5.4403   4.6464  -6.0183  -4.0260 -1035.60    0.0
1870 315503.400    595024.4663  -4856385.8100   4078386.8785   5   4   3.6433   7.0294   5.4411   4.6469  -6.0192  -4.0266 -1035.40    0.0
1870 315503.600    595024.4790  -4856385.7633   4078386.8336   5   4   3.6436   7.0303   5.4419   4.6475  -6.0201  -4.0271 -1035.20    0.0
1870 315503.800    595024.4931  -4856385.7954   4078386.8576   5   4   3.6438   7.0312   5.4427   4.6480  -6.0210  -4.0277 -1035.00    0.0
1870 315504.000    595024.4674  -4856385.8772   4078386.9387   5   4   3.6440   7.0321   5.4436   4.6486  -6.0219  -4.0283 -1034.80    0.0
1870 315504.200    595024.4620  -4856385.8901   4078386.9231   5   4   3.6443   7.0330   5.4444   4.6491  -6.0228  -4.0289 -1034.60    0.0
1870 315504.400    595024.5199  -4856385.8286   4078386.8799   5   4   3.6445   7.0339   5.4453   4.6497  -6.0237  -4.0295 -1034.40    0.0
1870 315504.600    595024.5191  -4856385.8592   4078386.8949   5   4   3.6448   7.0348   5.4461   4.6503  -6.0246  -4.0301 -1034.20    0.0
1870 315504.800    595024.5214  -4856385.8286   4078386.8714   5   4   3.6450   7.0357   5.4469   4.6508  -6.0255  -4.0307 -1034.00    0.0
1870 315505.000    595024.5131  -4856385.8584   4078386.8819   5   4   3.6452   7.0366   5.4478   4.6514  -6.0264  -4.0312 -1033.80    0.0
1870 315505.200    595024.5132  -4856385.9063   4078386.9252   5   4   3.6455   7.0375   5.4486   4.6519  -6.0273  -4.0318 -1033.60    0.0
1870 315505.400    595024.5524  -4856385.8428   4078386.8706   5   4   3.6457   7.0384   5.4494   4.6525  -6.0282  -4.0324 -1033.40    0.0
1870 315505.600    595024.5450  -4856385.8899   4078386.9094   5   4   3.6460   7.0393   5.4503   4.6531  -6.0291  -4.0330 -1033.20    0.0
1870 315505.800    595024.5338  -4856385.9367   4078386.9459   5   4   3.6462   7.0402   5.4511   4.6536  -6.0300  -4.0336 -1033.00    0.0
1870 315506.000    595024.5550  -4856385.9328   4078386.9207   5   4   3.6465   7.0411   5.4519   4.6542  -6.0309  -4.0342 -1032.80    0.0
1870 315506.200    595024.5983  -4856385.8253   4078386.8559   5   4   3.6467   7.0420   5.4528   4.6547  -6.0318  -4.0348 -1032.60    0.0
1870 315506.400    595024.5896  -4856385.7490   4078386.8132   5   4   3.6469   7.0429   5.4536   4.6553  -6.0327  -4.0354 -1032.40    0.0
1870 315506.600    595024.5756  -4856385.8127   4078386.8758   5   4   3.6472   7.0438   5.4545   4.6559  -6.0336  -4.0359 -1032.20    0.0
1870 315506.800    595024.6008  -4856385.7648   4078386.8404   5   4   3.6474   7.0447   5.4553   4.6564  -6.0345  -4.0365 -1032.00    0.0
1870 315507.000    595024.6343  -4856385.7351   4078386.8379   5   4   3.6477   7.0456   5.4561   4.6570  -6.0354  -4.0371 -1031.80    0.0
1870 315507.200    595024.6572  -4856385.7658   4078386.8693   5   4   3.6479   7.0465   5.4570   4.6576  -6.0363  -4.0377 -1031.60    0.0
1870 315507.400    595024.6644  -4856385.7776   4078386.8633   5   4   3.6482   7.0474   5.4578   4.6581  -6.0372  -4.0383 -1031.40    0.0
1870 315507.600    595024.6506  -4856385.7969   4078386.9135   5   4   3.6484   7.0483   5.4587   4.6587  -6.0382  -4.0389 -1031.20    0.0
1870 315507.800    595024.6503  -4856385.8080   4078386.9029   5   4   3.6486   7.0492   5.4595   4.6593  -6.0391  -4.0395 -1031.00    0.0
1870 315508.000    595024.6840  -4856385.7337   4078386.8879   5   4   3.6489   7.0501   5.4603   4.6598  -6.0400  -4.0401 -1030.80    0.0
1870 315508.200    595024.6763  -4856385.7439   4078386.8728   5   4   3.6491   7.0510   5.4612   4.6604  -6.0409  -4.0407 -1030.60    0.0
1870 315508.400    595024.7320  -4856385.6795   4078386.8299   5   4   3.6494   7.0519   5.4620   4.6609  -6.0418  -4.0413 -1030.40    0.0
1870 315508.600    595024.6995  -4856385.6968   4078386.8688   5   4   3.6496   7.0528   5.4629   4.6615  -6.0427  -4.0419 -1030.20    0.0
1870 315508.800    595024.7288  -4856385.6740   4078386.8224   5   4   3.6499   7.0537   5.4637   4.6621  -6.0436  -4.0424 -1030.00    0.0
1870 315509.000    595024.6940  -4856385.7700   4078386.9282   5   4   3.6501   7.0546   5.4645   4.6626  -6.0445  -4.0430 -1029.80    0.0
1870 315509.200    595024.7279  -4856385.7649   4078386.9124   5   4   3.6504   7.0555   5.4654   4.6632  -6.0454  -4.0436 -1029.60    0.0
1870 315509.400    595024.7649  -4856385.6984   4078386.8581   5   4   3.6506   7.0564   5.4662   4.6638  -6.0463  -4.0442 -1029.40    0.0
1870 315509.600    595024.7552  -4856385.7428   4078386.8974   5   4   3.6509   7.0573   5.4671   4.6643  -6.0472  -4.0448 -1029.20    0.0
1870 315509.800    595024.7848  -4856385.6755   4078386.8385   5   4   3.6511   7.0582   5.4679   4.6649  -6.0482  -4.0454 -1029.00    0.0
1870 315510.000    595024.7607  -4856385.7801   4078386.9096   5   4   3.6513   7.0591   5.4688   4.6655  -6.0491  -4.0460 -1028.80    0.0
1870 315510.200    595024.7948  -4856385.7305   4078386.8813   5   4   3.6516   7.0601   5.4696   4.6660  -6.0500  -4.0466 -1028.60    0.0
1870 315510.400    595024.7702  -4856385.7733   4078386.9115   5   4   3.6518   7.0610   5.4705   4.6666  -6.0509  -4.0472 -1028.40    0.0
1870 315510.600    595024.7900  -4856385.7838   4078386.9149   5   4   3.6521   7.0619   5.4713   4.6672  -6.0518  -4.0478 -1028.20    0.0
1870 315510.800    595024.8131  -4856385.7329   4078386.8798   5   4   3.6523   7.0628   5.4722   4.6678  -6.0527  -4.0484 -1028.00    0.0
1870 315511.000    595024.7892  -4856385.7931   4078386.9384   5   4   3.6526   7.0637   5.4730   4.6683  -6.0536  -4.0490 -1027.80    0.0
1870 315511.200    595024.8168  -4856385.7600   4078386.9338   5   4   3.6528   7.0646   5.4738   4.6689  -6.0545  -4.0496 -1027.60    0.0
1870 315511.400    595024.8218  -4856385.7688   4078386.9281   5   4   3.6531   7.0655   5.4747   4.6695  -6.0555  -4.0502 -1027.40    0.0
1870 315511.600    595024.8350  -4856385.7959   4078386.9554   5   4   3.6533   7.0664   5.4755   4.6700  -6.0564  -4.0508 -1027.20    0.0
1870 315511.800    595024.8395  -4856385.7428   4078386.9087   5   4   3.6536   7.0673   5.4764   4.6706  -6.0573  -4.0514 -1027.00    0.0
1870 315512.000    595024.8453  -4856385.7690   4078386.9314   5   4   3.6538   7.0683   5.4772   4.6712  -6.0582  -4.0520 -1026.80    0.0
1870 315512.200    595024.8424  -4856385.7150   4078386.8802   5   4   3.6541   7.0692   5.4781   4.6717  -6.0591  -4.0526 -1026.60    0.0
1870 315512.400    595024.8889  -4856385.7085   4078386.8737   5   4   3.6543   7.0701   5.4789   4.6723  -6.0600  -4.0532 -1026.40    0.0
1870 315512.600    595024.9025  -4856385.6910   4078386.8884   5   4   3.6546   7.0710   5.4798   4.6729  -6.0610  -4.0538 -1026.20    0.0
1870 315512.800    595024.9004  -4856385.6543   4078386.8655   5   4   3.6548   7.0719   5.4806   4.6735  -6.0619  -4.0544 -1026.00    0.0
1870 315513.000    595024.9240  -4856385.6278   4078386.8169   5   4   3.6551   7.0728   5.4815   4.6740  -6.0628  -4.0550 -1025.80    0.0
1870 315513.200    595024.9194  -4856385.6701   4078386.8611   5   4   3.6553   7.0738   5.4823   4.6746  -6.0637  -4.0555 -1025.60    0.0
1870 315513.400    595024.8749  -4856385.7626   4078386.9628   5   4   3.6556   7.0747   5.4832   4.6752  -6.0646  -4.0561 -1025.40    0.0
1870 315513.600    595024.8992  -4856385.7534   4078386.9426   5   4   3.6558   7.0756   5.4840   4.6757  -6.0656  -4.0567 -1025.20    0.0
1870 315513.800    595024.8836  -4856385.7945   4078386.9799   5   4   3.6561   7.0765   5.4849   4.6763  -6.0665  -4.0573 -1025.00    0.0
1870 315514.000    595024.8454  -4856385.8776   4078387.0161   5   4   3.6563   7.0774   5.4858   4.6769  -6.0674  -4.0579 -1024.80    0.0
1870 315514.200    595024.8775  -4856385.8246   4078386.9878   5   4   3.6566   7.0783   5.4866   4.6775  -6.0683  -4.0585 -1024.60    0.0
1870 315514.400    595024.8507  -4856385.8644   4078387.0183   5   4   3.6568   7.0793   5.4875   4.6780  -6.0692  -4.0591 -1024.40    0.0
1870 315514.600    595024.8391  -4856385.8612   4078387.0453   5   4   3.6571   7.0802   5.4883   4.6786  -6.0702  -4.0597 -1024.20    0.0
1870 315514.800    595024.8532  -4856385.8682   4078387.0466   5   4   3.6573   7.0811   5.4892   4.6792  -6.0711  -4.0603 -1024.00    0.0
1870 315515.000    595024.8272  -4856385.9254   4078387.1055   5   4   3.6576   7.0820   5.4900   4.6798  -6.0720  -4.0609 -1023.80    0.0
1870 315515.200    595024.8408  -4856385.8702   4078387.0657   5   4   3.6578   7.0829   5.4909   4.6803  -6.0729  -4.0615 -1023.60    0.0
1870 315515.400    595024.8626  -4856385.8333   4078387.0589   5   4   3.6581   7.0839   5.4917   4.6809  -6.0738  -4.0621 -1023.40    0.0
1870 315515.600    595024.8618  -4856385.8384   4078387.0509   5   4   3.6584   7.0848   5.4926   4.6815  -6.0748  -4.0628 -1023.20    0.0
1870 315515.800    595024.8762  -4856385.8006   4078387.0395   5   4   3.6586   7.0857   5.4934   4.6821  -6.0757  -4.0634 -1023.00    0.0
1870 315516.000    595024.8681  -4856385.8048   4078387.0270   5   4   3.6589   7.0866   5.4943   4.6826  -6.0766  -4.0640 -1022.80    0.0
1870 315516.200    595024.8752  -4856385.7661   4078387.0109   5   4   3.6591   7.0875   5.4952   4.6832  -6.0775  -4.0646 -1022.60    0.0
1870 315516.400    595024.8281  -4856385.9003   4078387.1256   5   4   3.6594   7.0885   5.4960   4.6838  -6.0785  -4.0652 -1022.40    0.0
1870 315516.600    595024.8760  -4856385.8286   4078387.0803   5   4   3.6596   7.0894   5.4969   4.6844  -6.0794  -4.0658 -1022.20    0.0
1870 315516.800    595024.8650  -4856385.8498   4078387.0938   5   4   3.6599   7.0903   5.4977   4.6850  -6.0803  -4.0664 -1022.00    0.0
1870 315517.000    595024.8503  -4856385.8705   4078387.1051   5   4   3.6601   7.0912   5.4986   4.6855  -6.0812  -4.0670 -1021.80    0.0
1870 315517.200    595024.8801  -4856385.8588   4078387.0893   5   4   3.6604   7.0922   5.4995   4.6861  -6.0822  -4.0676 -1021.60    0.0
1870 315517.400    595024.8768  -4856385.8361   4078387.0948   5   4   3.6606   7.0931   5.5003   4.6867  -6.0831  -4.0682 -1021.40    0.0
1870 315517.600    595024.8510  -4856385.8555   4078387.0991   5   4   3.6609   7.0940   5.5012   4.6873  -6.0840  -4.0688 -1021.20    0.0
1870 315517.800    595024.8452  -4856385.9120   4078387.1718   5   4   3.6612   7.0949   5.5020   4.6879  -6.0849  -4.0694 -1021.00    0.0
1870 315518.000    595024.8603  -4856385.8984   4078387.1468   5   4   3.6614   7.0959   5.5029   4.6884  -6.0859  -4.0700 -1020.80    0.0
1870 315518.200    595024.8352  -4856385.9352   4078387.1795   5   4   3.6617   7.0968   5.5038   4.6890  -6.0868  -4.0706 -1020.60    0.0
1870 315518.400    595024.8065  -4856385.9716   4078387.2100   5   4   3.6619   7.0977   5.5046   4.6896  -6.0877  -4.0712 -1020.40    0.0
1870 315518.600    595024.8106  -4856385.9565   4078387.1780   5   4   3.6622   7.0987   5.5055   4.6902  -6.0887  -4.0718 -1020.20    0.0
1870 315518.800    595024.8486  -4856385.8560   4078387.1413   5   4   3.6624   7.0996   5.5063   4.6908  -6.0896  -4.0724 -1020.00    0.0
1870 315519.000    595024.8206  -4856385.9098   4078387.2002   5   4   3.6627   7.1005   5.5072   4.6913  -6.0905  -4.0730 -1019.80    0.0
1870 315519.200    595024.8689  -4856385.7999   4078387.0999   5   4   3.6630   7.1014   5.5081   4.6919  -6.0915  -4.0736 -1019.60    0.0
1870 315519.400    595024.7901  -4856385.9651   4078387.2510   5   4   3.6632   7.1024   5.5089   4.6925  -6.0924  -4.0742 -1019.40    0.0
1870 315519.600    595024.7945  -4856385.9052   4078387.2061   5   4   3.6635   7.1033   5.5098   4.6931  -6.0933  -4.0748 -1019.20    0.0
1870 315519.800    595024.8436  -4856385.8127   4078387.1342   5   4   3.6637   7.1042   5.5107   4.6937  -6.0943  -4.0754 -1019.00    0.0
1870 315520.000    595024.7972  -4856385.8642   4078387.1816   5   4   3.6640   7.1052   5.5115   4.6943  -6.0952  -4.0761 -1018.80    0.0
1870 315520.200    595024.7954  -4856385.8831   4078387.2018   5   4   3.6642   7.1061   5.5124   4.6948  -6.0961  -4.0767 -1018.60    0.0
1870 315520.400    595024.7899  -4856385.9015   4078387.2197   5   4   3.6645   7.1070   5.5133   4.6954  -6.0971  -4.0773 -1018.40    0.0
1870 315520.600    595024.8431  -4856385.7645   4078387.1372   5   4   3.6648   7.1080   5.5141   4.6960  -6.0980  -4.0779 -1018.20    0.0
1870 315520.800    595024.8420  -4856385.8009   4078387.1860   5   4   3.6650   7.1089   5.5150   4.6966  -6.0989  -4.0785 -1018.00    0.0
1870 315521.000    595024.8326  -4856385.7564   4078387.1602   5   4   3.6653   7.1098   5.5159   4.6972  -6.0999  -4.0791 -1017.80    0.0
1870 315521.200    595024.8124  -4856385.7730   4078387.1689   5   4   3.6655   7.1108   5.5167   4.6978  -6.1008  -4.0797 -1017.60    0.0
1870 315521.400    595024.7886  -4856385.7890   4078387.1751   5   4   3.6658   7.1117   5.5176   4.6983  -6.1017  -4.0803 -1017.40    0.0
1870 315521.600    595024.8281  -4856385.7298   4078387.1531   5   4   3.6661   7.1126   5.5185   4.6989  -6.1027  -4.0809 -1017.20    0.0
1870 315521.800    595024.8522  -4856385.6513   4078387.0932   5   4   3.6663   7.1136   5.5193   4.6995  -6.1036  -4.0815 -1017.00    0.0
1870 315522.000    595024.8291  -4856385.6848   4078387.1279   5   4   3.6666   7.1145   5.5202   4.7001  -6.1045  -4.0821 -1016.80    0.0
1870 315522.200    595024.8211  -4856385.6753   4078387.1591   5   4   3.6668   7.1154   5.5211   4.7007  -6.1055  -4.0828 -1016.60    0.0
1870 315522.400    595024.8272  -4856385.6567   4078387.1289   5   4   3.6671   7.1164   5.5219   4.7013  -6.1064  -4.0834 -1016.40    0.0
1870 315522.600    595024.8048  -4856385.7077   4078387.1922   5   4   3.6674   7.1173   5.5228   4.7019  -6.1073  -4.0840 -1016.20    0.0
1870 315522.800    595024.8589  -4856385.5944   4078387.0957   5   4   3.6676   7.1182   5.5237   4.7025  -6.1083  -4.0846 -1016.00    0.0
1870 315523.000    595024.8291  -4856385.6444   4078387.1543   5   4   3.6679   7.1192   5.5245   4.7030  -6.1092  -4.0852 -1015.80    0.0
1870 315523.200    595024.8323  -4856385.6428   4078387.1502   5   4   3.6682   7.1201   5.5254   4.7036  -6.1102  -4.0858 -1015.60    0.0
1870 315523.400    595024.8023  -4856385.6304   4078387.1674   5   4   3.6684   7.1211   5.5263   4.7042  -6.1111  -4.0864 -1015.40    0.0
1870 315523.600    595024.8347  -4856385.5766   4078387.0982   5   4   3.6687   7.1220   5.5272   4.7048  -6.1120  -4.0870 -1015.20    0.0
1870 315523.800    595024.8090  -4856385.5821   4078387.1463   5   4   3.6689   7.1229   5.5280   4.7054  -6.1130  -4.0877 -1015.00    0.0
1870 315524.000    595024.8046  -4856385.5170   4078387.0960   5   4   3.6692   7.1239   5.5289   4.7060  -6.1139  -4.0883 -1014.80    0.0
1870 315524.200    595024.8565  -4856385.4380   4078387.0541   5   4   3.6695   7.1248   5.5298   4.7066  -6.1149  -4.0889 -1014.60    0.0
1870 315524.400    595024.8011  -4856385.4847   4078387.0964   5   4   3.6697   7.1258   5.5307   4.7072  -6.1158  -4.0895 -1014.40    0.0
1870 315524.600    595024.8457  -4856385.4047   4078387.0497   5   4   3.6700   7.1267   5.5315   4.7078  -6.1167  -4.0901 -1014.20    0.0
1870 315524.800    595024.7830  -4856385.4504   4078387.0873   5   4   3.6703   7.1276   5.5324   4.7083  -6.1177  -4.0907 -1014.00    0.0
1870 315525.000    595024.8203  -4856385.3694   4078387.0359   5   4   3.6705   7.1286   5.5333   4.7089  -6.1186  -4.0913 -1013.80    0.0
1870 315525.200    595024.8539  -4856385.2879   4078386.9822   5   4   3.6708   7.1295   5.5342   4.7095  -6.1196  -4.0920 -1013.60    0.0
1870 315525.400    595024.8473  -4856385.2572   4078386.9866   5   4   3.6711   7.1305   5.5350   4.7101  -6.1205  -4.0926 -1013.40    0.0
1870 315525.600    595024.8182  -4856385.2686   4078386.9899   5   4   3.6713   7.1314   5.5359   4.7107  -6.1215  -4.0932 -1013.20    0.0
1870 315525.800    595024.7971  -4856385.2984   4078387.0264   5   4   3.6716   7.1324   5.5368   4.7113  -6.1224  -4.0938 -1013.00    0.0
1870 315526.000    595024.8162  -4856385.2149   4078386.9632   5   4   3.6719   7.1333   5.5377   4.7119  -6.1234  -4.0944 -1012.80    0.0
1870 315526.200    595024.7994  -4856385.2628   4078387.0306   5   4   3.6721   7.1343   5.5385   4.7125  -6.1243  -4.0950 -1012.60    0.0
1870 315526.400    595024.8041  -4856385.2398   4078386.9995   5   4   3.6724   7.1352   5.5394   4.7131  -6.1252  -4.0957 -1012.40    0.0
1870 315526.600    595024.7755  -4856385.2060   4078386.9898   5   4   3.6726   7.1362   5.5403   4.7137  -6.1262  -4.0963 -1012.20    0.0
1870 315526.800    595024.7845  -4856385.2011   4078386.9896   5   4   3.6729   7.1371   5.5412   4.7143  -6.1271  -4.0969 -1012.00    0.0
1870 315527.000    595024.7898  -4856385.1956   4078386.9870   5   4   3.6732   7.1380   5.5420   4.7149  -6.1281  -4.0975 -1011.80    0.0
1870 315527.200    595024.8058  -4856385.0662   4078386.9083   5   4   3.6734   7.1390   5.5429   4.7155  -6.1290  -4.0981 -1011.60    0.0
1870 315527.400    595024.8109  -4856384.9981   4078386.8642   5   4   3.6737   7.1399   5.5438   4.7161  -6.1300  -4.0987 -1011.40    0.0
1870 315527.600    595024.7615  -4856385.1041   4078386.9520   5   4   3.6740   7.1409   5.5447   4.7167  -6.1309  -4.0994 -1011.20    0.0
1870 315527.800    595024.8077  -4856385.0025   4078386.8781   5   4   3.6743   7.1418   5.5456   4.7173  -6.1319  -4.1000 -1011.00    0.0
1870 315528.000    595024.8019  -4856384.9327   4078386.8269   5   4   3.6745   7.1428   5.5464   4.7178  -6.1328  -4.1006 -1010.80    0.0
1870 315528.200    595024.7487  -4856384.9755   4078386.8707   5   4   3.6748   7.1437   5.5473   4.7184  -6.1338  -4.1012 -1010.60    0.0
1870 315528.400    595024.7401  -4856384.9855   4078386.8873   5   4   3.6751   7.1447   5.5482   4.7190  -6.1347  -4.1018 -1010.40    0.0
1870 315528.600    595024.7279  -4856384.9949   4078386.9014   5   4   3.6753   7.1456   5.5491   4.7196  -6.1357  -4.1025 -1010.20    0.0
1870 315528.800    595024.7559  -4856384.8906   4078386.8157   5   4   3.6756   7.1466   5.5500   4.7202  -6.1366  -4.1031 -1010.00    0.0
1870 315529.000    595024.6997  -4856384.9505   4078386.8858   5   4   3.6759   7.1475   5.5509   4.7208  -6.1376  -4.1037 -1009.80    0.0
1870 315529.200    595024.7320  -4856384.8643   4078386.8309   5   4   3.6761   7.1485   5.5517   4.7214  -6.1385  -4.1043 -1009.60    0.0
1870 315529.400    595024.7607  -4856384.7775   4078386.7736   5   4   3.6764   7.1494   5.5526   4.7220  -6.1395  -4.1049 -1009.40    0.0
1870 315529.600    595024.6863  -4856384.8976   4078386.8736   5   4   3.6767   7.1504   5.5535   4.7226  -6.1404  -4.1056 -1009.20    0.0
1870 315529.800    595024.7445  -4856384.7581   4078386.7509   5   4   3.6769   7.1514   5.5544   4.7232  -6.1414  -4.1062 -1009.00    0.0
1870 315530.000    595024.7184  -4856384.7830   4078386.7841   5   4   3.6772   7.1523   5.5553   4.7238  -6.1424  -4.1068 -1008.80    0.0
1870 315530.200    595024.7326  -4856384.6940   4078386.7173   5   4   3.6775   7.1533   5.5562   4.7244  -6.1433  -4.1074 -1008.60    0.0
1870 315530.400    595024.7474  -4856384.6854   4078386.7208   5   4   3.6778   7.1542   5.5570   4.7250  -6.1443  -4.1080 -1008.40    0.0
1870 315530.600    595024.6989  -4856384.6896   4078386.7113   5   4   3.6780   7.1552   5.5579   4.7256  -6.1452  -4.1087 -1008.20    0.0
1870 315530.800    595024.6697  -4856384.7315   4078386.7708   5   4   3.6783   7.1561   5.5588   4.7262  -6.1462  -4.1093 -1008.00    0.0
1870 315531.000    595024.6809  -4856384.6595   4078386.7302   5   4   3.6786   7.1571   5.5597   4.7268  -6.1471  -4.1099 -1007.80    0.0
1870 315531.200    595024.6741  -4856384.7106   4078386.7611   5   4   3.6788   7.1580   5.5606   4.7274  -6.1481  -4.1105 -1007.60    0.0
1870 315531.400    595024.6968  -4856384.5949   4078386.7144   5   4   3.6791   7.1590   5.5615   4.7280  -6.1490  -4.1112 -1007.40    0.0
1870 315531.600    595024.6899  -4856384.5830   4078386.7036   5   4   3.6794   7.1600   5.5624   4.7286  -6.1500  -4.1118 -1007.20    0.0
1870 315531.800    595024.7205  -4856384.6000   4078386.7024   5   4   3.6797   7.1609   5.5633   4.7292  -6.1510  -4.1124 -1007.00    0.0
1870 315532.000    595024.6696  -4856384.6387   4078386.7476   5   4   3.6799   7.1619   5.5642   4.7298  -6.1519  -4.1130 -1006.80    0.0
1870 315532.200    595024.7074  -4856384.5309   4078386.6676   5   4   3.6802   7.1628   5.5650   4.7304  -6.1529  -4.1137 -1006.60    0.0
1870 315532.400    595024.6420  -4856384.6305   4078386.7451   5   4   3.6805   7.1638   5.5659   4.7310  -6.1538  -4.1143 -1006.40    0.0
1870 315532.600    595024.6285  -4856384.6351   4078386.7582   5   4   3.6807   7.1648   5.5668   4.7316  -6.1548  -4.1149 -1006.20    0.0
1870 315532.800    595024.6482  -4856384.5875   4078386.7080   5   4   3.6810   7.1657   5.5677   4.7323  -6.1558  -4.1155 -1006.00    0.0
1870 315533.000    595024.6758  -4856384.5585   4078386.6911   5   4   3.6813   7.1667   5.5686   4.7329  -6.1567  -4.1162 -1005.80    0.0
1870 315533.200    595024.5959  -4856384.6559   4078386.7592   5   4   3.6816   7.1676   5.5695   4.7335  -6.1577  -4.1168 -1005.60    0.0
1870 315533.400    595024.6162  -4856384.6259   4078386.7375   5   4   3.6818   7.1686   5.5704   4.7341  -6.1586  -4.1174 -1005.40    0.0
1870 315533.600    595024.6401  -4856384.5333   4078386.6764   5   4   3.6821   7.1696   5.5713   4.7347  -6.1596  -4.1180 -1005.20    0.0
1870 315533.800    595024.5905  -4856384.6585   4078386.7493   5   4   3.6824   7.1705   5.5722   4.7353  -6.1606  -4.1187 -1005.00    0.0
1870 315534.000    595024.6000  -4856384.6267   4078386.7205   5   4   3.6827   7.1715   5.5731   4.7359  -6.1615  -4.1193 -1004.80    0.0
1870 315534.200    595024.6173  -4856384.6137   4078386.7250   5   4   3.6829   7.1725   5.5740   4.7365  -6.1625  -4.1199 -1004.60    0.0
1870 315534.400    595024.6196  -4856384.5808   4078386.6914   5   4   3.6832   7.1734   5.5749   4.7371  -6.1634  -4.1206 -1004.40    0.0
1870 315534.600    595024.5814  -4856384.5992   4078386.7164   5   4   3.6835   7.1744   5.5757   4.7377  -6.1644  -4.1212 -1004.20    0.0
1870 315534.800    595024.5692  -4856384.6271   4078386.7151   5   4   3.6838   7.1754   5.5766   4.7383  -6.1654  -4.1218 -1004.00    0.0
1870 315535.000    595024.5835  -4856384.6312   4078386.7459   5   4   3.6840   7.1763   5.5775   4.7389  -6.1663  -4.1224 -1003.80    0.0
1870 315535.200    595024.5272  -4856384.7099   4078386.8008   5   4   3.6843   7.1773   5.5784   4.7395  -6.1673  -4.1231 -1003.60    0.0
1870 315535.400    595024.5784  -4856384.5989   4078386.7287   5   4   3.6846   7.1783   5.5793   4.7401  -6.1683  -4.1237 -1003.40    0.0
1870 315535.600    595024.5632  -4856384.6439   4078386.7536   5   4   3.6849   7.1792   5.5802   4.7407  -6.1692  -4.1243 -1003.20    0.0
1870 315535.800    595024.5444  -4856384.6883   4078386.7761   5   4   3.6852   7.1802   5.5811   4.7414  -6.1702  -4.1250 -1003.00    0.0
1870 315536.000    595024.5292  -4856384.6703   4078386.7591   5   4   3.6854   7.1812   5.5820   4.7420  -6.1712  -4.1256 -1002.80    0.0
1870 315536.200    595024.5218  -4856384.6709   4078386.7756   5   4   3.6857   7.1821   5.5829   4.7426  -6.1721  -4.1262 -1002.60    0.0
1870 315536.400    595024.5036  -4856384.7330   4078386.8268   5   4   3.6860   7.1831   5.5838   4.7432  -6.1731  -4.1269 -1002.40    0.0
1870 315536.600    595024.5332  -4856384.6186   4078386.7402   5   4   3.6863   7.1841   5.5847   4.7438  -6.1741  -4.1275 -1002.20    0.0
1870 315536.800    595024.5005  -4856384.7415   4078386.8237   5   4   3.6865   7.1850   5.5856   4.7444  -6.1750  -4.1281 -1002.00    0.0
1870 315537.000    595024.5229  -4856384.6259   4078386.7323   5   4   3.6868   7.1860   5.5865   4.7450  -6.1760  -4.1287 -1001.80    0.0
1870 315537.200    595024.5016  -4856384.7051   4078386.8098   5   4   3.6871   7.1870   5.5874   4.7456  -6.1770  -4.1294 -1001.60    0.0
1870 315537.400    595024.4653  -4856384.7644   4078386.8490   5   4   3.6874   7.1879   5.5883   4.7462  -6.1779  -4.1300 -1001.40    0.0
1870 315537.600    595024.4810  -4856384.7284   4078386.8234   5   4   3.6877   7.1889   5.5892   4.7468  -6.1789  -4.1306 -1001.20    0.0
1870 315537.800    595024.4818  -4856384.6725   4078386.7594   5   4   3.6879   7.1899   5.5901   4.7475  -6.1799  -4.1313 -1001.00    0.0
1870 315538.000    595024.4904  -4856384.6353   4078386.7290   5   4   3.6882   7.1909   5.5910   4.7481  -6.1809  -4.1319 -1000.80    0.0
1870 315538.200    595024.4438  -4856384.7737   4078386.8317   5   4   3.6885   7.1918   5.5919   4.7487  -6.1818  -4.1325 -1000.60    0.0
1870 315538.400    595024.4524  -4856384.6734   4078386.7592   5   4   3.6888   7.1928   5.5928   4.7493  -6.1828  -4.1332 -1000.40    0.0
1870 315538.600    595024.4615  -4856384.6539   4078386.7574   5   4   3.6891   7.1938   5.5937   4.7499  -6.1838  -4.1338 -1000.20    0.0
1870 315538.800    595024.4187  -4856384.6665   4078386.7784   5   4   3.6893   7.1948   5.5946   4.7505  -6.1848  -4.1344 -1000.00    0.0
1870 315539.000    595024.4133  -4856384.7079   4078386.8090   5   4   3.6896   7.1957   5.5955   4.7511  -6.1857  -4.1351 -999.80    0.0
1870 315539.200    595024.4600  -4856384.6539   4078386.7746   5   4   3.6899   7.1967   5.5964   4.7518  -6.1867  -4.1357 -999.60    0.0
1870 315539.400    595024.3990  -4856384.7268   4078386.8258   5   4   3.6902   7.1977   5.5973   4.7524  -6.1877  -4.1364 -999.40    0.0
1870 315539.600    595024.3902  -4856384.7044   4078386.8119   5   4   3.6905   7.1987   5.5982   4.7530  -6.1886  -4.1370 -999.20    0.0
1870 315539.800    595024.3744  -4856384.8250   4078386.9060   5   4   3.6907   7.1996   5.5991   4.7536  -6.1896  -4.1376 -999.00    0.0
1870 315540.000    595024.3954  -4856384.7492   4078386.8260   5   4   3.6910   7.2006   5.6001   4.7542  -6.1906  -4.1383 -998.80    0.0
1870 315540.200    595024.4355  -4856384.7117   4078386.8155   5   4   3.6913   7.2016   5.6010   4.7548  -6.1916  -4.1389 -998.60    0.0
1870 315540.400    595024.3679  -4856384.8013   4078386.8905   5   4   3.6916   7.2026   5.6019   4.7555  -6.1925  -4.1395 -998.40    0.0
1870 315540.600    595024.4007  -4856384.7626   4078386.8751   5   4   3.6919   7.2036   5.6028   4.7561  -6.1935  -4.1402 -998.20    0.0
1870 315540.800    595024.3630  -4856384.7987   4078386.8840   5   4   3.6922   7.2045   5.6037   4.7567  -6.1945  -4.1408 -998.00    0.0
1870 315541.000    595024.3330  -4856384.8538   4078386.9264   5   4   3.6924   7.2055   5.6046   4.7573  -6.1955  -4.1414 -997.80    0.0
1870 315541.200    595024.3365  -4856384.8559   4078386.9051   5   4   3.6927   7.2065   5.6055   4.7579  -6.1965  -4.1421 -997.60    0.0
1870 315541.400    595024.3106  -4856384.9293   4078386.9787   5   4   3.6930   7.2075   5.6064   4.7585  -6.1974  -4.1427 -997.40    0.0
1870 315541.600    595024.3255  -4856384.8876   4078386.9512   5   4   3.6933   7.2085   5.6073   4.7592  -6.1984  -4.1434 -997.20    0.0
1870 315541.800    595024.3368  -4856384.8453   4078386.9212   5   4   3.6936   7.2094   5.6082   4.7598  -6.1994  -4.1440 -997.00    0.0
1870 315542.000    595024.2889  -4856384.8974   4078386.9516   5   4   3.6939   7.2104   5.6091   4.7604  -6.2004  -4.1446 -996.80    0.0
1870 315542.200    595024.2931  -4856384.8539   4078386.9168   5   4   3.6942   7.2114   5.6100   4.7610  -6.2014  -4.1453 -996.60    0.0
1870 315542.400    595024.3421  -4856384.7770   4078386.8541   5   4   3.6944   7.2124   5.6110   4.7616  -6.2023  -4.1459 -996.40    0.0
1870 315542.600    595024.2946  -4856384.8468   4078386.9132   5   4   3.6947   7.2134   5.6119   4.7623  -6.2033  -4.1466 -996.20    0.0
1870 315542.800    595024.3291  -4856384.8308   4078386.8830   5   4   3.6950   7.2144   5.6128   4.7629  -6.2043  -4.1472 -996.00    0.0
1870 315543.000    595024.2819  -4856384.8372   4078386.8998   5   4   3.6953   7.2154   5.6137   4.7635  -6.2053  -4.1478 -995.80    0.0
1870 315543.200    595024.2608  -4856384.8528   4078386.8902   5   4   3.6956   7.2163   5.6146   4.7641  -6.2063  -4.1485 -995.60    0.0
1870 315543.400    595024.2401  -4856384.9497   4078386.9516   5   4   3.6959   7.2173   5.6155   4.7647  -6.2073  -4.1491 -995.40    0.0
1870 315543.600    595024.2491  -4856384.8787   4078386.9343   5   4   3.6962   7.2183   5.6164   4.7654  -6.2082  -4.1498 -995.20    0.0
1870 315543.800    595024.2731  -4856384.7974   4078386.8545   5   4   3.6964   7.2193   5.6173   4.7660  -6.2092  -4.1504 -995.00    0.0
1870 315544.000    595024.2529  -4856384.9120   4078386.9446   5   4   3.6967   7.2203   5.6183   4.7666  -6.2102  -4.1511 -994.80    0.0
1870 315544.200    595024.2771  -4856384.7672   4078386.8225   5   4   3.6970   7.2213   5.6192   4.7672  -6.2112  -4.1517 -994.60    0.0
1870 315544.400    595024.3054  -4856384.7854   4078386.8449   5   4   3.6973   7.2223   5.6201   4.7679  -6.2122  -4.1523 -994.40    0.0
1870 315544.600    595024.2818  -4856384.8359   4078386.8903   5   4   3.6976   7.2232   5.6210   4.7685  -6.2132  -4.1530 -994.20    0.0
1870 315544.800    595024.2434  -4856384.8662   4078386.8972   5   4   3.6979   7.2242   5.6219   4.7691  -6.2141  -4.1536 -994.00    0.0
1870 315545.000    595024.2572  -4856384.8007   4078386.8388   5   4   3.6982   7.2252   5.6228   4.7697  -6.2151  -4.1543 -993.80    0.0
1870 315545.200    595024.2229  -4856384.8493   4078386.8769   5   4   3.6985   7.2262   5.6237   4.7704  -6.2161  -4.1549 -993.60    0.0
1870 315545.400    595024.2854  -4856384.6873   4078386.7505   5   4   3.6987   7.2272   5.6247   4.7710  -6.2171  -4.1556 -993.40    0.0
1870 315545.600    595024.2439  -4856384.7347   4078386.7838   5   4   3.6990   7.2282   5.6256   4.7716  -6.2181  -4.1562 -993.20    0.0
1870 315545.800    595024.2473  -4856384.7486   4078386.7890   5   4   3.6993   7.2292   5.6265   4.7722  -6.2191  -4.1568 -993.00    0.0
1870 315546.000    595024.2471  -4856384.7619   4078386.7919   5   4   3.6996   7.2302   5.6274   4.7729  -6.2201  -4.1575 -992.80    0.0
1870 315546.200    595024.2619  -4856384.7318   4078386.7908   5   4   3.6999   7.2312   5.6283   4.7735  -6.2211  -4.1581 -992.60    0.0
1870 315546.400    595024.2174  -4856384.7964   4078386.8504   5   4   3.7002   7.2322   5.6293   4.7741  -6.2221  -4.1588 -992.40    0.0
1870 315546.600    595024.2697  -4856384.6501   4078386.7453   5   4   3.7005   7.2332   5.6302   4.7747  -6.2230  -4.1594 -992.20    0.0
1870 315546.800    595024.2664  -4856384.6805   4078386.7744   5   4   3.7008   7.2342   5.6311   4.7754  -6.2240  -4.1601 -992.00    0.0
1870 315547.000    595024.2484  -4856384.6906   4078386.7650   5   4   3.7011   7.2352   5.6320   4.7760  -6.2250  -4.1607 -991.80    0.0
